Name,ID,Vicinity,latitude,longitude,Rating,Url
Bangalore University,ChIJLTqH_QwWrjsRJ3p0HFUb_Q4,"Palace Rd, P.K.Block, Gandhi Nagar, Bengaluru",12.9748016,77.5813642,3.8,https://www.google.com/maps/place/?q=place_id:ChIJLTqH_QwWrjsRJ3p0HFUb_Q4
Dayananda Sagar University,ChIJnd7aI7AUrjsREdc7MFUuJzU,"Hosur Rd, Kudlu Gate, Srinivasa Nagar, Hal Layout, Singasandra, Bengaluru",12.8874283,77.6419887,4,https://www.google.com/maps/place/?q=place_id:ChIJnd7aI7AUrjsREdc7MFUuJzU
Bengaluru University South Gate,ChIJD2yJN_Q-rjsRZGnTi8R2Grg,"WGP7+G26, Bangalore University Rd, ITI Layout 3rd Phase, Kenchenhalli, Gnana Bharathi, Bengaluru",12.9362869,77.5125102,3.4,https://www.google.com/maps/place/?q=place_id:ChIJD2yJN_Q-rjsRZGnTi8R2Grg
Jnanabharati Campus Bangalore University,ChIJXTLEXCQ_rjsRtvHuVTavXm4,"WGV3+HVR, Bangalore University Rd, Jnana Jyothi Nagar, Gnana Bharathi, Bengaluru",12.9439838,77.5046289,4.3,https://www.google.com/maps/place/?q=place_id:ChIJXTLEXCQ_rjsRtvHuVTavXm4
Dayananda Sagar University,ChIJl7y107EUrjsRG5HnWLrMHiA,"Shavige Malleshwara Hills, 1st Stage, Kumaraswamy Layout, Bengaluru",12.9072339,77.565569,3.9,https://www.google.com/maps/place/?q=place_id:ChIJl7y107EUrjsRG5HnWLrMHiA
Srinivas University,ChIJ562IWd0VrjsRF-lezNqHMPc,"CV Naidu Chambers, 651, 11th Cross Rd, 7th Block, Jayanagar, Bengaluru",12.9245647,77.5768226,4.8,https://www.google.com/maps/place/?q=place_id:ChIJ562IWd0VrjsRF-lezNqHMPc
Manipal University,ChIJsZL7MmtrrjsRROJ2m6RfJ0g,"Manipal acadamy of banking survey no36/1 chokkanahalli jakkur, Bengaluru",12.8722119,77.6416369,5,https://www.google.com/maps/place/?q=place_id:ChIJsZL7MmtrrjsRROJ2m6RfJ0g
Bengaluru City University,ChIJTXjO3wwWrjsR9RKRZL55qAU,"XHFM+X9X, Central College Campus, Dr Ambedkar Rd, Bengaluru",12.9749803,77.5834875,4,https://www.google.com/maps/place/?q=place_id:ChIJTXjO3wwWrjsR9RKRZL55qAU
Bangalore North University Campus,ChIJ7z_OTA3_sTsRvpd3PJ9nWYU,"7WGG+2H2, Amaravathi",13.2750053,77.9263914,5,https://www.google.com/maps/place/?q=place_id:ChIJ7z_OTA3_sTsRvpd3PJ9nWYU
Atria University,ChIJgT951D0XrjsRoBfClAPsyb0,"1st Main Rd, Chola Nagar, Anandnagar, Hebbal, Bengaluru",13.033044,77.5922584,3.9,https://www.google.com/maps/place/?q=place_id:ChIJgT951D0XrjsRoBfClAPsyb0
Garden City Pre University College,ChIJrUmM8lQQrjsRKOdMB7eho4k,"2PC4+C22, Thambu Chetty Palya, Battarahalli, Bengaluru",13.0210087,77.7050274,4,https://www.google.com/maps/place/?q=place_id:ChIJrUmM8lQQrjsRKOdMB7eho4k
Bangalore University,ChIJ___P3Ls-rjsRyfy_veTAEa0,"Mysore Rd, Jnana Bharathi, Bengaluru",12.9504048,77.5020617,3.6,https://www.google.com/maps/place/?q=place_id:ChIJ___P3Ls-rjsRyfy_veTAEa0
"Students Center, BASE University",ChIJnfJ4Pks_rjsRPsQLwKaziCc,"WGX8+GVW, Chandra Layout Extension II Stage, Chandra Layout, Bengaluru",12.9488656,77.5172186,0,https://www.google.com/maps/place/?q=place_id:ChIJnfJ4Pks_rjsRPsQLwKaziCc
REVA University,ChIJ0x9lGnIZrjsR9gD2KP4l4t4,"Rukmini Knowledge Park, Kattigenahalli, SH 104, Srinivasa Nagar, Bengaluru",13.1163393,77.6352927,4.2,https://www.google.com/maps/place/?q=place_id:ChIJ0x9lGnIZrjsR9gD2KP4l4t4
Christ University Bannerghatta Road Campus,ChIJ1QO9pDIVrjsRJnqqK3eJVTE,"VHHW+48F, Bannerghatta Main Rd, Pai Layout, Hulimavu, Bengaluru",12.8778133,77.5957995,4.2,https://www.google.com/maps/place/?q=place_id:ChIJ1QO9pDIVrjsRJnqqK3eJVTE
CMR University HRBR (City Campus),ChIJS020oCgXrjsRSTP4qYg8BcY,"2 3rd C Cross, 2nd A Cross Rd, Kalyan Nagar, Bengaluru",13.0194229,77.6424022,3.9,https://www.google.com/maps/place/?q=place_id:ChIJS020oCgXrjsRSTP4qYg8BcY
Chanakya University,ChIJG5y1fSE9rjsRXEF9ph9C1NU,"Prajnanam, NO.6/6, behind TELEPHONE EXCHANGE, Papreddy Palya, 2nd Stage, Naagarabhaavi, Bengaluru",12.9670298,77.5107625,5,https://www.google.com/maps/place/?q=place_id:ChIJG5y1fSE9rjsRXEF9ph9C1NU
University Of Agricultural Sciences,ChIJMXM8BycYrjsRbxBiOOngBjY,"No. 2477, Bellary Rd, Raj Mahal Vilas Extension, Yelahanka, Bengaluru",13.059984,77.5933911,0,https://www.google.com/maps/place/?q=place_id:ChIJMXM8BycYrjsRbxBiOOngBjY
RV University,ChIJuaQYbx2trzsRv6DrJBosCMY,"RV Vidyanikethan Post 8th Mile, Mysore Rd, Bengaluru",12.923315,77.4997099,4.5,https://www.google.com/maps/place/?q=place_id:ChIJuaQYbx2trzsRv6DrJBosCMY
Rai Tech University,ChIJp6B1vK0grjsRA96KXMpZ4Ts,"11th Mile Gallu, Doddaballapur - Nelamangala Road Mallohalli Village Kadanur, Doddaballapur, Taluk, Bengaluru",13.2248594,77.4725381,3.4,https://www.google.com/maps/place/?q=place_id:ChIJp6B1vK0grjsRA96KXMpZ4Ts
Vidyashilp University,ChIJjdxAfJEfrjsRHTfsPRDRnFM,"#125, Bettenahalli, Kundana Hobli, Chapparkallu Rd, Bengaluru",13.2009489,77.6027458,4.8,https://www.google.com/maps/place/?q=place_id:ChIJjdxAfJEfrjsRHTfsPRDRnFM
University of vis,ChIJL7Jpx7UXrjsRI93JyQkdJsA,"XHFP+Q3P, Sir M. Visvesvaraya Stn., Central College, Dr Ambedkar Rd, Sampangi Rama Nagara, Bengaluru",12.97445,77.5852058,0,https://www.google.com/maps/place/?q=place_id:ChIJL7Jpx7UXrjsRI93JyQkdJsA
Alliance University - City Campus 1,ChIJHbu_C-IUrjsR7pdE-DTnLAk,"s, 7th Main Rd, NS Palya, स्टेज 2, Bengaluru",12.9067979,77.6079921,3.9,https://www.google.com/maps/place/?q=place_id:ChIJHbu_C-IUrjsR7pdE-DTnLAk
Azim Premji University,ChIJu2zWM6NsrjsROxyT-yT9BC0,"Burugunte Village, Survey No 66, Bikkanahalli Main Rd, Sarjapura, Bengaluru",12.8452628,77.7768752,4.5,https://www.google.com/maps/place/?q=place_id:ChIJu2zWM6NsrjsROxyT-yT9BC0
KHYKHA Pre-University College,ChIJO_Tg_H4VrjsRe4uP5MDlUgs,"WH98+25M, 14th Main Rd, Kadarenahalli Park, Yarab Nagar, Banashankari, Bengaluru",12.9175837,77.5654279,4.7,https://www.google.com/maps/place/?q=place_id:ChIJO_Tg_H4VrjsRe4uP5MDlUgs
Jain University School of Sciences,ChIJ3bGMzZcVrjsRQBAwWuBWWAM,"18, 3rd Block, 3, 9th Main Rd, Jayanagar 3rd Block, Jayanagar, Bengaluru",12.9354128,77.5841939,4,https://www.google.com/maps/place/?q=place_id:ChIJ3bGMzZcVrjsRQBAwWuBWWAM
"Vice Chancellor's Residence, Bangalore University",ChIJwZUGRQ4_rjsRUJEPGPmUxic,"Campus, Bangalore University Rd, Mutharayana Nagar, Gnana Bharathi, Bengaluru",12.9377322,77.5086069,5,https://www.google.com/maps/place/?q=place_id:ChIJwZUGRQ4_rjsRUJEPGPmUxic
St. Joseph's University,ChIJFQ_b_dkVrjsRrs4jJRNSyN4,"36, Langford Rd, Langford Gardens, Bengaluru",12.9623845,77.5964272,4.3,https://www.google.com/maps/place/?q=place_id:ChIJFQ_b_dkVrjsRrs4jJRNSyN4
NORTH BANGALORE UNIVERSITY,ChIJfeQtwLz_sTsRLf-3_4pAsW4,"7WG9+59P, Amaravathi",13.2754618,77.9184616,0,https://www.google.com/maps/place/?q=place_id:ChIJfeQtwLz_sTsRLf-3_4pAsW4
Chanakya University,ChIJXzB-mBodrjsRD1CWOXCoVAU,"NH -207 Boodigere Road, Brigade Orchards Spinal Rd, Devanahalli",13.2314729,77.7228427,4.9,https://www.google.com/maps/place/?q=place_id:ChIJXzB-mBodrjsRD1CWOXCoVAU
Christ (Deemed to be University),ChIJBzipd7IVrjsR0KudszePUYg,"Hosur Rd, Bhavani Nagar, S.G. Palya, Bengaluru",12.9362362,77.6061888,4.2,https://www.google.com/maps/place/?q=place_id:ChIJBzipd7IVrjsR0KudszePUYg
East West Pre University,ChIJWb5UHZIZrjsRqS5QltE0oQo,"Yelahanka, Sector A, Yelahanka Satellite Town, Yelahanka New Town, Bengaluru",13.0954873,77.5890105,4.6,https://www.google.com/maps/place/?q=place_id:ChIJWb5UHZIZrjsRqS5QltE0oQo
Alliance University City Campus 2,ChIJi9eYdWUWrjsRuuq57bUH0b8,"15/1, Cubbon Rd, Dollar Scheme Colony, 1st Stage, Sampangi Rama Nagar, Bengaluru",12.9169236,77.6193869,4.1,https://www.google.com/maps/place/?q=place_id:ChIJi9eYdWUWrjsRuuq57bUH0b8
Chanakya University - Project Office,ChIJw709jLADrjsR5whbvoMXM6I,"6Q94+X2, Muddenahalli",13.2199186,77.7550761,5,https://www.google.com/maps/place/?q=place_id:ChIJw709jLADrjsR5whbvoMXM6I
SRIVIDYA INTERNATIONAL UNIVERSITY FOR VEDIC SCIENCE,ChIJMfMwJDg-rjsRhpsEnkR-Y0I,"No. 12, First Floor, 2nd Main, Dattatreyanagar, Banashankari 3rd Stage, Hosakerehalli, Bengaluru",12.9311459,77.5408867,5,https://www.google.com/maps/place/?q=place_id:ChIJMfMwJDg-rjsRhpsEnkR-Y0I
The Oxford Pre University College,ChIJ19pJcLFqrjsRhh_LCQMnt04,"No.40, Ramaiah Garden, JP Nagar Phase 6, Bengaluru",12.8985028,77.584124,3.7,https://www.google.com/maps/place/?q=place_id:ChIJ19pJcLFqrjsRhh_LCQMnt04
St Aloysius International University,ChIJ3YWSQzAWrjsRo3wWt7F0hZc,"907, 11th Cross Rd, Vyalikaval, Kodandarampura, Malleswaram, Bengaluru",13.0019896,77.5753027,4.6,https://www.google.com/maps/place/?q=place_id:ChIJ3YWSQzAWrjsRo3wWt7F0hZc
ICFAI UNIVERSITY,ChIJc5HHNCIWrjsRXbMNg7SF0Vs,"#547,F-01, 1st Floor, Premier Court, Opp to Mother Hood Hospital, Chinmaya Mission Hospital Rd, above City Gift Center, Indiranagar, Bengaluru",12.9913298,77.5688413,0,https://www.google.com/maps/place/?q=place_id:ChIJc5HHNCIWrjsRXbMNg7SF0Vs
Jain (Deemed-to-be University),ChIJpeBvzZcVrjsR7xpSDsF_CTY,"44/4, District Fund Road, behind Big Bazaar, Jayanagara 9th Block, Bengaluru",12.9181269,77.5918946,4,https://www.google.com/maps/place/?q=place_id:ChIJpeBvzZcVrjsR7xpSDsF_CTY
"JAIN (Deemed-to-be-university), Faculty of Engineering and Technology",ChIJR09pOadbrjsRdds58JLdS0I,"45th km, NH - 209 Kanakapura Road Jakkasandra, Post, Bengaluru",12.6421763,77.4399964,3.8,https://www.google.com/maps/place/?q=place_id:ChIJR09pOadbrjsRdds58JLdS0I
Jain University,ChIJwSjUyRQVrjsR2denpsqIz-M,"6th Phase, 319, 25th Main Rd, KR Layout, JP Nagar Phase 6, J. P. Nagar, Bengaluru",12.9031504,77.5851567,4.1,https://www.google.com/maps/place/?q=place_id:ChIJwSjUyRQVrjsR2denpsqIz-M
Maharishi Markandeshwar University. Bangalore Corporate office,ChIJEYGEoI8XrjsRM7Vv8u90Bmk,"2JPH+4WJ, 5th Block, Telecom Layout, HBR Layout, Bengaluru",13.0353255,77.6297503,0,https://www.google.com/maps/place/?q=place_id:ChIJEYGEoI8XrjsRM7Vv8u90Bmk
St Hopkins College | Bangalore University | Executive MBA,ChIJe91oTB0VrjsRMRGwx2-PvDY,"53 Subbanna Garden , Bannerghatta Road, Kempanna Cross, Adugodi, Bengaluru",12.9511155,77.6044594,2.8,https://www.google.com/maps/place/?q=place_id:ChIJe91oTB0VrjsRMRGwx2-PvDY
PES University Main Gate,ChIJ3VGNqG0_rjsRDADKTAFFqS8,"34, 6th Cross Rd, Dwaraka Nagar, Banashankari, Bengaluru",12.9351922,77.5363278,4.1,https://www.google.com/maps/place/?q=place_id:ChIJ3VGNqG0_rjsRDADKTAFFqS8
University MBA,ChIJp-UOXg8WrjsRRUyCAHZ_Do4,"No. 27, Thulasi Thotam,, Park Road, Balepete, Chickpet, opp. Sreenivasa Hospital, Bengaluru",12.9736528,77.5740629,3.3,https://www.google.com/maps/place/?q=place_id:ChIJp-UOXg8WrjsRRUyCAHZ_Do4
Sri Jagadguru Panditharadya Pre University College,ChIJf9p2azYZrjsRLmHuEw4lz54,"4JVH+5JQ, Hunasamaranahalli, Bengaluru",13.1429558,77.6291024,3,https://www.google.com/maps/place/?q=place_id:ChIJf9p2azYZrjsRLmHuEw4lz54
SARDAR VALLABHABHAI PATEL PRE-UNIVERSITY COLLEGE,ChIJ98uEQyBzrjsRYeprOzVpN14,"VQ6M+C9H, Sarjapura, Bengaluru",12.8610672,77.7834858,3.8,https://www.google.com/maps/place/?q=place_id:ChIJ98uEQyBzrjsRYeprOzVpN14
Economics Department Bangalore University.,ChIJ0d9TL5I-rjsRh0hOnmIx7Ls,"WGW2+5XQ, Manasa Bhavana Jnanabharathi Campus, Jnanabharathi Layout, 1st Block, BDA Mariyappana Palya Layout, Bengaluru",12.9454642,77.5024922,4.4,https://www.google.com/maps/place/?q=place_id:ChIJ0d9TL5I-rjsRh0hOnmIx7Ls
ICFAI UNIVERSITY HOSUR,ChIJFS15L9xwrjsRn9J2mAO-ajc,"Address Address Line (eg. Apartment no., suite, floor, etc.) Street #Street Name Titan Rd Sub-Locality(s)LocalityCity Maruthi Nagar (Dharga) Sunnambu Jeebi Hosur District / CountyState / ProvincePostcode Krishnagiri Tamil Nadu 635126, Titan Road, Maruthi Nagar (Dharga), Sunnambu Jeebi, Hosur",12.7456745,77.8174067,0,https://www.google.com/maps/place/?q=place_id:ChIJFS15L9xwrjsRn9J2mAO-ajc
Government Pre University College Hoodi,ChIJNdDE6ZURrjsRQyLS0QlMBxs,"XPW9+38C, Hoodi Main Rd, Hudi, Thigalarapalya, Hoodi, Bengaluru",12.9951845,77.7182722,4.3,https://www.google.com/maps/place/?q=place_id:ChIJNdDE6ZURrjsRQyLS0QlMBxs
Annamalai University own study centre,ChIJ8SECdY4VrjsRfNuloNYqwUc,"Metro Pillar Number 81, IOC Petrol pump, 1st floor, 547/1, Rashtriya Vidyalaya Rd, near Vijaya College, 2nd Block, Basavanagudi, Bengaluru",12.9422261,77.580222,3.3,https://www.google.com/maps/place/?q=place_id:ChIJ8SECdY4VrjsRfNuloNYqwUc
Christ University Yeshwanthpur Campus,ChIJYVetQAo9rjsRt-HWMu-LpeU,"2GP3+GR5, Nalagadderanahalli, Peenya, Bengaluru",13.0362518,77.5046093,4.2,https://www.google.com/maps/place/?q=place_id:ChIJYVetQAo9rjsRt-HWMu-LpeU
YOGA UNIVERSITY OF THE AMERICAS,ChIJ82DuD0EYrjsR-rXqYj3FSfI,"8th Main Road 13th A Cross, Allalasandra, Judicial Layout, Bengaluru",13.0836376,77.5883632,5,https://www.google.com/maps/place/?q=place_id:ChIJ82DuD0EYrjsR-rXqYj3FSfI
"R&D block, CHRIST UNIVERSITY",ChIJ38aPU7QVrjsRCH1Bv_s1O64,"WJJ4+G88, Bhavani Nagar, S.G. Palya, Bengaluru",12.9312942,77.6058246,0,https://www.google.com/maps/place/?q=place_id:ChIJ38aPU7QVrjsRCH1Bv_s1O64
Rajiv Gandhi University of Health Sciences,ChIJFRvSkKYVrjsRJIMjWuaSJhE,"WHGR+GXJ, 4th T Block East, Pattabhirama Nagar, Jayanagar, Bengaluru",12.9263273,77.5923784,3.3,https://www.google.com/maps/place/?q=place_id:ChIJFRvSkKYVrjsRJIMjWuaSJhE
"Block 3, Christ University",ChIJFVxWPa0VrjsRXmNlh4-WatY,"Christ University, Campus Road, Bhavani Nagar, S.G. Palya, Bengaluru",12.9321331,77.6064116,3.2,https://www.google.com/maps/place/?q=place_id:ChIJFVxWPa0VrjsRXmNlh4-WatY
ISBM University,ChIJWTPvg44XrjsRnXtVYRjxqNE,"No.416, 2nd Floor, Kammanahalli Main Rd, opp. ICICI Bank, HRBR Layout 2nd Block, Kalyan Nagar, Bengaluru",13.0155592,77.6359447,3.8,https://www.google.com/maps/place/?q=place_id:ChIJWTPvg44XrjsRnXtVYRjxqNE
Silicon Valley Pre University College,ChIJZQejCg4ZrjsR3dha4NLbdEE,"2349, 23rd A Cross Rd, Block C, Sahakar Nagar, Bengaluru",13.0613184,77.5770436,4.8,https://www.google.com/maps/place/?q=place_id:ChIJZQejCg4ZrjsR3dha4NLbdEE
Annamalai university distance education,ChIJO63SicwTrjsRPnNGP_CpJ5M,"XM4W+9JX, 1st Cross Rd, Chowdeshwari Layout, Marathahalli Village, Marathahalli, Bengaluru",12.9559763,77.6965974,3,https://www.google.com/maps/place/?q=place_id:ChIJO63SicwTrjsRPnNGP_CpJ5M
PES UNIVERSITY ECC Main Gate,ChIJk5GXft1trjsRX8H5WaS5IS0,"Pes University-Electronic City Campus, PESU ECC Main Rd, Konappana Agrahara, Rayasandra, Bengaluru",12.8642103,77.66567,0,https://www.google.com/maps/place/?q=place_id:ChIJk5GXft1trjsRX8H5WaS5IS0
